[
  {
    "name": "John Tavares",
    "birthday": "September 20, 1990",
    "birthplace": "Mississauga, Ontario, Canada",
    "position": "Forward",
    "currentTeam": "New York Islanders",
    "geo": {
      "results": [
        {
          "address_components": [
            {
              "long_name": "Mississauga",
              "short_name": "Mississauga",
              "types": [
                "locality",
                "political"
              ]
            },
            {
              "long_name": "Peel Regional Municipality",
              "short_name": "Peel Regional Municipality",
              "types": [
                "administrative_area_level_2",
                "political"
              ]
            },
            {
              "long_name": "Ontario",
              "short_name": "ON",
              "types": [
                "administrative_area_level_1",
                "political"
              ]
            },
            {
              "long_name": "Canada",
              "short_name": "CA",
              "types": [
                "country",
                "political"
              ]
            }
          ],
          "formatted_address": "Mississauga, ON, Canada",
          "geometry": {
            "bounds": {
              "northeast": {
                "lat": 43.737351,
                "lng": -79.5408494
              },
              "southwest": {
                "lat": 43.4809933,
                "lng": -79.8101295
              }
            },
            "location": {
              "lat": 43.5890452,
              "lng": -79.6441198
            },
            "location_type": "APPROXIMATE",
            "viewport": {
              "northeast": {
                "lat": 43.737351,
                "lng": -79.5408494
              },
              "southwest": {
                "lat": 43.4809933,
                "lng": -79.8101295
              }
            }
          },
          "types": [
            "locality",
            "political"
          ]
        }
      ],
      "status": "OK"
    }
  },
  {
    "name": "Corey Perry",
    "birthday": "May 16, 1985",
    "birthplace": "Peterborough, Ontario, Canada",
    "position": "Forward",
    "currentTeam": "Anaheim Ducks",
    "geo": {
      "results": [
        {
          "address_components": [
            {
              "long_name": "Peterborough",
              "short_name": "Peterborough",
              "types": [
                "locality",
                "political"
              ]
            },
            {
              "long_name": "Peterborough County",
              "short_name": "Peterborough County",
              "types": [
                "administrative_area_level_2",
                "political"
              ]
            },
            {
              "long_name": "Ontario",
              "short_name": "ON",
              "types": [
                "administrative_area_level_1",
                "political"
              ]
            },
            {
              "long_name": "Canada",
              "short_name": "CA",
              "types": [
                "country",
                "political"
              ]
            }
          ],
          "formatted_address": "Peterborough, ON, Canada",
          "geometry": {
            "bounds": {
              "northeast": {
                "lat": 44.378223,
                "lng": -78.268288
              },
              "southwest": {
                "lat": 44.2521659,
                "lng": -78.3828599
              }
            },
            "location": {
              "lat": 44.309058,
              "lng": -78.31974699999999
            },
            "location_type": "APPROXIMATE",
            "viewport": {
              "northeast": {
                "lat": 44.378223,
                "lng": -78.268288
              },
              "southwest": {
                "lat": 44.2521659,
                "lng": -78.3828599
              }
            }
          },
          "types": [
            "locality",
            "political"
          ]
        }
      ],
      "status": "OK"
    }
  },
  {
    "name": "Tyler Seguin",
    "birthday": "January 31, 1992",
    "birthplace": "Brampton, Ontario, Canada",
    "position": "Forward",
    "currentTeam": "Dallas Stars",
    "geo": {
      "results": [
        {
          "address_components": [
            {
              "long_name": "Brampton",
              "short_name": "Brampton",
              "types": [
                "locality",
                "political"
              ]
            },
            {
              "long_name": "Peel Regional Municipality",
              "short_name": "Peel Regional Municipality",
              "types": [
                "administrative_area_level_2",
                "political"
              ]
            },
            {
              "long_name": "Ontario",
              "short_name": "ON",
              "types": [
                "administrative_area_level_1",
                "political"
              ]
            },
            {
              "long_name": "Canada",
              "short_name": "CA",
              "types": [
                "country",
                "political"
              ]
            }
          ],
          "formatted_address": "Brampton, ON, Canada",
          "geometry": {
            "bounds": {
              "northeast": {
                "lat": 43.847729,
                "lng": -79.6301939
              },
              "southwest": {
                "lat": 43.602139,
                "lng": -79.8888939
              }
            },
            "location": {
              "lat": 43.683333,
              "lng": -79.766667
            },
            "location_type": "APPROXIMATE",
            "viewport": {
              "northeast": {
                "lat": 43.847729,
                "lng": -79.6301939
              },
              "southwest": {
                "lat": 43.602139,
                "lng": -79.8888939
              }
            }
          },
          "types": [
            "locality",
            "political"
          ]
        }
      ],
      "status": "OK"
    }
  },
  {
    "name": "Patrick Marleau",
    "birthday": "September 15, 1979",
    "birthplace": "Aneroid, Saskatchewan, Canada",
    "position": "Forward",
    "currentTeam": "San Jose Sharks",
    "geo": {
      "results": [
        {
          "address_components": [
            {
              "long_name": "Aneroid",
              "short_name": "Aneroid",
              "types": [
                "locality",
                "political"
              ]
            },
            {
              "long_name": "Division No. 3",
              "short_name": "Division No. 3",
              "types": [
                "administrative_area_level_2",
                "political"
              ]
            },
            {
              "long_name": "Saskatchewan",
              "short_name": "SK",
              "types": [
                "administrative_area_level_1",
                "political"
              ]
            },
            {
              "long_name": "Canada",
              "short_name": "CA",
              "types": [
                "country",
                "political"
              ]
            },
            {
              "long_name": "S0N",
              "short_name": "S0N",
              "types": [
                "postal_code_prefix",
                "postal_code"
              ]
            }
          ],
          "formatted_address": "Aneroid, SK S0N, Canada",
          "geometry": {
            "bounds": {
              "northeast": {
                "lat": 49.72060399999999,
                "lng": -107.2915851
              },
              "southwest": {
                "lat": 49.712879,
                "lng": -107.3083979
              }
            },
            "location": {
              "lat": 49.7168863,
              "lng": -107.2969288
            },
            "location_type": "APPROXIMATE",
            "viewport": {
              "northeast": {
                "lat": 49.72060399999999,
                "lng": -107.2915851
              },
              "southwest": {
                "lat": 49.712879,
                "lng": -107.3083979
              }
            }
          },
          "types": [
            "locality",
            "political"
          ]
        }
      ],
      "status": "OK"
    }
  },
  {
    "name": "Henrik Zetterberg",
    "birthday": "October 9, 1980",
    "birthplace": "Njurunda, Sweden",
    "position": "Forward",
    "currentTeam": "Detroit Red Wings",
    "geo": {
      "results": [
        {
          "address_components": [
            {
              "long_name": "Njurunda",
              "short_name": "Njurunda",
              "types": [
                "sublocality_level_1",
                "sublocality",
                "political"
              ]
            },
            {
              "long_name": "Njurunda",
              "short_name": "Njurunda",
              "types": [
                "postal_town"
              ]
            },
            {
              "long_name": "Sundsvall",
              "short_name": "Sundsvall",
              "types": [
                "administrative_area_level_2",
                "political"
              ]
            },
            {
              "long_name": "Västernorrland County",
              "short_name": "Västernorrland County",
              "types": [
                "administrative_area_level_1",
                "political"
              ]
            },
            {
              "long_name": "Sweden",
              "short_name": "SE",
              "types": [
                "country",
                "political"
              ]
            },
            {
              "long_name": "86240",
              "short_name": "86240",
              "types": [
                "postal_code"
              ]
            }
          ],
          "formatted_address": "Njurunda, 862 40 Njurunda, Sweden",
          "geometry": {
            "location": {
              "lat": 62.27070439999999,
              "lng": 17.3718572
            },
            "location_type": "APPROXIMATE",
            "viewport": {
              "northeast": {
                "lat": 62.27589570000001,
                "lng": 17.3878646
              },
              "southwest": {
                "lat": 62.26551219999999,
                "lng": 17.3558498
              }
            }
          },
          "types": [
            "sublocality_level_1",
            "sublocality",
            "political"
          ]
        }
      ],
      "status": "OK"
    }
  },
  {
    "name": "Ryan Getzlaf",
    "birthday": "May 10, 1985",
    "birthplace": "Regina, Saskatchewan, Canada",
    "position": "Forward",
    "currentTeam": "Anaheim Ducks",
    "geo": {
      "results": [
        {
          "address_components": [
            {
              "long_name": "Regina",
              "short_name": "Regina",
              "types": [
                "locality",
                "political"
              ]
            },
            {
              "long_name": "Division No. 6",
              "short_name": "Division No. 6",
              "types": [
                "administrative_area_level_2",
                "political"
              ]
            },
            {
              "long_name": "Saskatchewan",
              "short_name": "SK",
              "types": [
                "administrative_area_level_1",
                "political"
              ]
            },
            {
              "long_name": "Canada",
              "short_name": "CA",
              "types": [
                "country",
                "political"
              ]
            }
          ],
          "formatted_address": "Regina, SK, Canada",
          "geometry": {
            "bounds": {
              "northeast": {
                "lat": 50.5063089,
                "lng": -104.5233991
              },
              "southwest": {
                "lat": 50.3964489,
                "lng": -104.709816
              }
            },
            "location": {
              "lat": 50.454722,
              "lng": -104.606667
            },
            "location_type": "APPROXIMATE",
            "viewport": {
              "northeast": {
                "lat": 50.5063089,
                "lng": -104.5233991
              },
              "southwest": {
                "lat": 50.3964489,
                "lng": -104.709816
              }
            }
          },
          "types": [
            "locality",
            "political"
          ]
        }
      ],
      "status": "OK"
    }
  },
  {
    "name": "Rick Nash",
    "birthday": "June 16, 1984",
    "birthplace": "Brampton, Ontario, Canada",
    "position": "Forward",
    "currentTeam": "New York Rangers",
    "geo": {
      "results": [
        {
          "address_components": [
            {
              "long_name": "Brampton",
              "short_name": "Brampton",
              "types": [
                "locality",
                "political"
              ]
            },
            {
              "long_name": "Peel Regional Municipality",
              "short_name": "Peel Regional Municipality",
              "types": [
                "administrative_area_level_2",
                "political"
              ]
            },
            {
              "long_name": "Ontario",
              "short_name": "ON",
              "types": [
                "administrative_area_level_1",
                "political"
              ]
            },
            {
              "long_name": "Canada",
              "short_name": "CA",
              "types": [
                "country",
                "political"
              ]
            }
          ],
          "formatted_address": "Brampton, ON, Canada",
          "geometry": {
            "bounds": {
              "northeast": {
                "lat": 43.847729,
                "lng": -79.6301939
              },
              "southwest": {
                "lat": 43.602139,
                "lng": -79.8888939
              }
            },
            "location": {
              "lat": 43.683333,
              "lng": -79.766667
            },
            "location_type": "APPROXIMATE",
            "viewport": {
              "northeast": {
                "lat": 43.847729,
                "lng": -79.6301939
              },
              "southwest": {
                "lat": 43.602139,
                "lng": -79.8888939
              }
            }
          },
          "types": [
            "locality",
            "political"
          ]
        }
      ],
      "status": "OK"
    }
  },
  {
    "name": "Ryan Johansen",
    "birthday": "July 31, 1992",
    "birthplace": "Vancouver, British Columbia, Canada",
    "position": "Forward",
    "currentTeam": "Columbus Blue Jackets",
    "geo": {
      "results": [
        {
          "address_components": [
            {
              "long_name": "Vancouver",
              "short_name": "Vancouver",
              "types": [
                "locality",
                "political"
              ]
            },
            {
              "long_name": "Greater Vancouver",
              "short_name": "Greater Vancouver",
              "types": [
                "administrative_area_level_2",
                "political"
              ]
            },
            {
              "long_name": "British Columbia",
              "short_name": "BC",
              "types": [
                "administrative_area_level_1",
                "political"
              ]
            },
            {
              "long_name": "Canada",
              "short_name": "CA",
              "types": [
                "country",
                "political"
              ]
            }
          ],
          "formatted_address": "Vancouver, BC, Canada",
          "geometry": {
            "bounds": {
              "northeast": {
                "lat": 49.31409499999999,
                "lng": -123.023068
              },
              "southwest": {
                "lat": 49.1998604,
                "lng": -123.22474
              }
            },
            "location": {
              "lat": 49.261226,
              "lng": -123.1139268
            },
            "location_type": "APPROXIMATE",
            "viewport": {
              "northeast": {
                "lat": 49.31409499999999,
                "lng": -123.023068
              },
              "southwest": {
                "lat": 49.1998604,
                "lng": -123.22474
              }
            }
          },
          "types": [
            "locality",
            "political"
          ]
        }
      ],
      "status": "OK"
    }
  },
  {
    "name": "Sidney Crosby",
    "birthday": "August 7, 1987",
    "birthplace": "Cole Harbour, Nova Scotia, Canada",
    "position": "Forward",
    "currentTeam": "Pittsburgh Penguins",
    "geo": {
      "results": [
        {
          "address_components": [
            {
              "long_name": "Cole Harbour",
              "short_name": "Cole Harbour",
              "types": [
                "locality",
                "political"
              ]
            },
            {
              "long_name": "Halifax",
              "short_name": "Halifax",
              "types": [
                "administrative_area_level_3",
                "political"
              ]
            },
            {
              "long_name": "Halifax Regional Municipality",
              "short_name": "Halifax Regional Municipality",
              "types": [
                "administrative_area_level_2",
                "political"
              ]
            },
            {
              "long_name": "Nova Scotia",
              "short_name": "NS",
              "types": [
                "administrative_area_level_1",
                "political"
              ]
            },
            {
              "long_name": "Canada",
              "short_name": "CA",
              "types": [
                "country",
                "political"
              ]
            }
          ],
          "formatted_address": "Cole Harbour, NS, Canada",
          "geometry": {
            "bounds": {
              "northeast": {
                "lat": 44.6983115,
                "lng": -63.41350199999999
              },
              "southwest": {
                "lat": 44.6250529,
                "lng": -63.50187789999999
              }
            },
            "location": {
              "lat": 44.6458149,
              "lng": -63.4534447
            },
            "location_type": "APPROXIMATE",
            "viewport": {
              "northeast": {
                "lat": 44.6983115,
                "lng": -63.41350199999999
              },
              "southwest": {
                "lat": 44.6250529,
                "lng": -63.50187789999999
              }
            }
          },
          "types": [
            "locality",
            "political"
          ]
        }
      ],
      "status": "OK"
    }
  },
  {
    "name": "Kyle Okposo",
    "birthday": "April 16, 1988",
    "birthplace": "St. Paul, Minnesota, United States",
    "position": "Forward",
    "currentTeam": "New York Islanders",
    "geo": {
      "results": [
        {
          "address_components": [
            {
              "long_name": "Saint Paul",
              "short_name": "St Paul",
              "types": [
                "locality",
                "political"
              ]
            },
            {
              "long_name": "Ramsey County",
              "short_name": "Ramsey County",
              "types": [
                "administrative_area_level_2",
                "political"
              ]
            },
            {
              "long_name": "Minnesota",
              "short_name": "MN",
              "types": [
                "administrative_area_level_1",
                "political"
              ]
            },
            {
              "long_name": "United States",
              "short_name": "US",
              "types": [
                "country",
                "political"
              ]
            }
          ],
          "formatted_address": "Saint Paul, MN, USA",
          "geometry": {
            "bounds": {
              "northeast": {
                "lat": 44.992016,
                "lng": -93.00431979999999
              },
              "southwest": {
                "lat": 44.88739899999999,
                "lng": -93.207787
              }
            },
            "location": {
              "lat": 44.9537029,
              "lng": -93.0899578
            },
            "location_type": "APPROXIMATE",
            "viewport": {
              "northeast": {
                "lat": 44.992016,
                "lng": -93.00431979999999
              },
              "southwest": {
                "lat": 44.88739899999999,
                "lng": -93.207787
              }
            }
          },
          "types": [
            "locality",
            "political"
          ]
        }
      ],
      "status": "OK"
    }
  },
  {
    "name": "Nick Foligno",
    "birthday": "October 31, 1987",
    "birthplace": "Buffalo, New York, United States",
    "position": "Forward",
    "currentTeam": "Columbus Blue Jackets",
    "geo": {
      "results": [
        {
          "address_components": [
            {
              "long_name": "Buffalo",
              "short_name": "Buffalo",
              "types": [
                "locality",
                "political"
              ]
            },
            {
              "long_name": "Erie County",
              "short_name": "Erie County",
              "types": [
                "administrative_area_level_2",
                "political"
              ]
            },
            {
              "long_name": "New York",
              "short_name": "NY",
              "types": [
                "administrative_area_level_1",
                "political"
              ]
            },
            {
              "long_name": "United States",
              "short_name": "US",
              "types": [
                "country",
                "political"
              ]
            }
          ],
          "formatted_address": "Buffalo, NY, USA",
          "geometry": {
            "bounds": {
              "northeast": {
                "lat": 42.9664549,
                "lng": -78.795157
              },
              "southwest": {
                "lat": 42.826023,
                "lng": -78.914247
              }
            },
            "location": {
              "lat": 42.88644679999999,
              "lng": -78.8783689
            },
            "location_type": "APPROXIMATE",
            "viewport": {
              "northeast": {
                "lat": 42.9664549,
                "lng": -78.795157
              },
              "southwest": {
                "lat": 42.826023,
                "lng": -78.914247
              }
            }
          },
          "types": [
            "locality",
            "political"
          ]
        }
      ],
      "status": "OK"
    }
  },
  {
    "name": "Claude Giroux",
    "birthday": "January 12, 1988",
    "birthplace": "Hearst, Ontario, Canada",
    "position": "Forward",
    "currentTeam": "Philadelphia Flyers",
    "geo": {
      "results": [
        {
          "address_components": [
            {
              "long_name": "Hearst",
              "short_name": "Hearst",
              "types": [
                "locality",
                "political"
              ]
            },
            {
              "long_name": "Cochrane District",
              "short_name": "Cochrane District",
              "types": [
                "administrative_area_level_2",
                "political"
              ]
            },
            {
              "long_name": "Ontario",
              "short_name": "ON",
              "types": [
                "administrative_area_level_1",
                "political"
              ]
            },
            {
              "long_name": "Canada",
              "short_name": "CA",
              "types": [
                "country",
                "political"
              ]
            },
            {
              "long_name": "P0L",
              "short_name": "P0L",
              "types": [
                "postal_code_prefix",
                "postal_code"
              ]
            }
          ],
          "formatted_address": "Hearst, ON P0L, Canada",
          "geometry": {
            "bounds": {
              "northeast": {
                "lat": 49.7206274,
                "lng": -83.562984
              },
              "southwest": {
                "lat": 49.65574590000001,
                "lng": -83.7587798
              }
            },
            "location": {
              "lat": 49.6880184,
              "lng": -83.66695519999999
            },
            "location_type": "APPROXIMATE",
            "viewport": {
              "northeast": {
                "lat": 49.7206274,
                "lng": -83.562984
              },
              "southwest": {
                "lat": 49.65574590000001,
                "lng": -83.7587798
              }
            }
          },
          "types": [
            "locality",
            "political"
          ]
        }
      ],
      "status": "OK"
    }
  },
  {
    "name": "Jakub Vorácek",
    "birthday": "August 15, 1989",
    "birthplace": "Kladno, Czech Republic",
    "position": "Forward",
    "currentTeam": "Philadelphia Flyers",
    "geo": {
      "results": [
        {
          "address_components": [
            {
              "long_name": "Kladno",
              "short_name": "Kladno",
              "types": [
                "locality",
                "political"
              ]
            },
            {
              "long_name": "Kladno District",
              "short_name": "Kladno District",
              "types": [
                "administrative_area_level_2",
                "political"
              ]
            },
            {
              "long_name": "Central Bohemian Region",
              "short_name": "Central Bohemian Region",
              "types": [
                "administrative_area_level_1",
                "political"
              ]
            },
            {
              "long_name": "Czech Republic",
              "short_name": "CZ",
              "types": [
                "country",
                "political"
              ]
            }
          ],
          "formatted_address": "Kladno, Czech Republic",
          "geometry": {
            "bounds": {
              "northeast": {
                "lat": 50.1823661,
                "lng": 14.177871
              },
              "southwest": {
                "lat": 50.1166986,
                "lng": 14.0415518
              }
            },
            "location": {
              "lat": 50.1416986,
              "lng": 14.1067465
            },
            "location_type": "APPROXIMATE",
            "viewport": {
              "northeast": {
                "lat": 50.1823661,
                "lng": 14.177871
              },
              "southwest": {
                "lat": 50.1166986,
                "lng": 14.0415518
              }
            }
          },
          "types": [
            "locality",
            "political"
          ]
        }
      ],
      "status": "OK"
    }
  },
  {
    "name": "Evgeni Malkin",
    "birthday": "July 31, 1986",
    "birthplace": "Magnitogorsk, Russia",
    "position": "Forward",
    "currentTeam": "Pittsburgh Penguins",
    "geo": {
      "results": [
        {
          "address_components": [
            {
              "long_name": "Magnitogorsk",
              "short_name": "Magnitogorsk",
              "types": [
                "locality",
                "political"
              ]
            },
            {
              "long_name": "gorod Magnitogorsk",
              "short_name": "g. Magnitogorsk",
              "types": [
                "administrative_area_level_2",
                "political"
              ]
            },
            {
              "long_name": "Chelyabinsk Oblast",
              "short_name": "Chelyabinsk Oblast",
              "types": [
                "administrative_area_level_1",
                "political"
              ]
            },
            {
              "long_name": "Russia",
              "short_name": "RU",
              "types": [
                "country",
                "political"
              ]
            }
          ],
          "formatted_address": "Magnitogorsk, Chelyabinsk Oblast, Russia",
          "geometry": {
            "bounds": {
              "northeast": {
                "lat": 53.531225,
                "lng": 59.1619671
              },
              "southwest": {
                "lat": 53.30488,
                "lng": 58.89813210000001
              }
            },
            "location": {
              "lat": 53.4129429,
              "lng": 59.00162330000001
            },
            "location_type": "APPROXIMATE",
            "viewport": {
              "northeast": {
                "lat": 53.531225,
                "lng": 59.1619671
              },
              "southwest": {
                "lat": 53.30488,
                "lng": 58.89813210000001
              }
            }
          },
          "types": [
            "locality",
            "political"
          ]
        }
      ],
      "status": "OK"
    }
  },
  {
    "name": "Joe Pavelski",
    "birthday": "July 11, 1984",
    "birthplace": "Plover, Wisconsin, United States",
    "position": "Forward",
    "currentTeam": "San Jose Sharks",
    "geo": {
      "results": [
        {
          "address_components": [
            {
              "long_name": "Plover",
              "short_name": "Plover",
              "types": [
                "locality",
                "political"
              ]
            },
            {
              "long_name": "Portage County",
              "short_name": "Portage County",
              "types": [
                "administrative_area_level_2",
                "political"
              ]
            },
            {
              "long_name": "Wisconsin",
              "short_name": "WI",
              "types": [
                "administrative_area_level_1",
                "political"
              ]
            },
            {
              "long_name": "United States",
              "short_name": "US",
              "types": [
                "country",
                "political"
              ]
            }
          ],
          "formatted_address": "Plover, WI, USA",
          "geometry": {
            "bounds": {
              "northeast": {
                "lat": 44.4975151,
                "lng": -89.488244
              },
              "southwest": {
                "lat": 44.432144,
                "lng": -89.608651
              }
            },
            "location": {
              "lat": 44.4563579,
              "lng": -89.5440069
            },
            "location_type": "APPROXIMATE",
            "viewport": {
              "northeast": {
                "lat": 44.4975151,
                "lng": -89.488244
              },
              "southwest": {
                "lat": 44.432144,
                "lng": -89.608651
              }
            }
          },
          "types": [
            "locality",
            "political"
          ]
        }
      ],
      "status": "OK"
    }
  },
  {
    "name": "Logan Couture",
    "birthday": "March 28, 1989",
    "birthplace": "Guelph, Ontario, Canada",
    "position": "Forward",
    "currentTeam": "San Jose Sharks",
    "geo": {
      "results": [
        {
          "address_components": [
            {
              "long_name": "Guelph",
              "short_name": "Guelph",
              "types": [
                "locality",
                "political"
              ]
            },
            {
              "long_name": "Wellington County",
              "short_name": "Wellington County",
              "types": [
                "administrative_area_level_2",
                "political"
              ]
            },
            {
              "long_name": "Ontario",
              "short_name": "ON",
              "types": [
                "administrative_area_level_1",
                "political"
              ]
            },
            {
              "long_name": "Canada",
              "short_name": "CA",
              "types": [
                "country",
                "political"
              ]
            }
          ],
          "formatted_address": "Guelph, ON, Canada",
          "geometry": {
            "bounds": {
              "northeast": {
                "lat": 43.595021,
                "lng": -80.153391
              },
              "southwest": {
                "lat": 43.473845,
                "lng": -80.3269451
              }
            },
            "location": {
              "lat": 43.5448048,
              "lng": -80.24816659999999
            },
            "location_type": "APPROXIMATE",
            "viewport": {
              "northeast": {
                "lat": 43.595021,
                "lng": -80.153391
              },
              "southwest": {
                "lat": 43.473845,
                "lng": -80.3269451
              }
            }
          },
          "types": [
            "locality",
            "political"
          ]
        }
      ],
      "status": "OK"
    }
  },
  {
    "name": "Jeff Carter",
    "birthday": "January 1, 1985",
    "birthplace": "London, Ontario, Canada",
    "position": "Forward",
    "currentTeam": "Los Angeles Kings",
    "geo": {
      "results": [
        {
          "address_components": [
            {
              "long_name": "London",
              "short_name": "London",
              "types": [
                "locality",
                "political"
              ]
            },
            {
              "long_name": "Middlesex County",
              "short_name": "Middlesex County",
              "types": [
                "administrative_area_level_2",
                "political"
              ]
            },
            {
              "long_name": "Ontario",
              "short_name": "ON",
              "types": [
                "administrative_area_level_1",
                "political"
              ]
            },
            {
              "long_name": "Canada",
              "short_name": "CA",
              "types": [
                "country",
                "political"
              ]
            }
          ],
          "formatted_address": "London, ON, Canada",
          "geometry": {
            "bounds": {
              "northeast": {
                "lat": 43.073245,
                "lng": -81.1063879
              },
              "southwest": {
                "lat": 42.824517,
                "lng": -81.390852
              }
            },
            "location": {
              "lat": 42.9869502,
              "lng": -81.243177
            },
            "location_type": "APPROXIMATE",
            "viewport": {
              "northeast": {
                "lat": 43.073245,
                "lng": -81.1063879
              },
              "southwest": {
                "lat": 42.824517,
                "lng": -81.390852
              }
            }
          },
          "types": [
            "locality",
            "political"
          ]
        }
      ],
      "status": "OK"
    }
  },
  {
    "name": "Phil Kessel",
    "birthday": "October 2, 1987",
    "birthplace": "Madison, Wisconsin, United States",
    "position": "Forward",
    "currentTeam": "Toronto Maple Leafs",
    "geo": {
      "results": [
        {
          "address_components": [
            {
              "long_name": "Madison",
              "short_name": "Madison",
              "types": [
                "locality",
                "political"
              ]
            },
            {
              "long_name": "Dane County",
              "short_name": "Dane County",
              "types": [
                "administrative_area_level_2",
                "political"
              ]
            },
            {
              "long_name": "Wisconsin",
              "short_name": "WI",
              "types": [
                "administrative_area_level_1",
                "political"
              ]
            },
            {
              "long_name": "United States",
              "short_name": "US",
              "types": [
                "country",
                "political"
              ]
            }
          ],
          "formatted_address": "Madison, WI, USA",
          "geometry": {
            "bounds": {
              "northeast": {
                "lat": 43.171916,
                "lng": -89.24645199999999
              },
              "southwest": {
                "lat": 42.998071,
                "lng": -89.56638889999999
              }
            },
            "location": {
              "lat": 43.0730517,
              "lng": -89.4012302
            },
            "location_type": "APPROXIMATE",
            "viewport": {
              "northeast": {
                "lat": 43.171916,
                "lng": -89.24645199999999
              },
              "southwest": {
                "lat": 42.998071,
                "lng": -89.56638889999999
              }
            }
          },
          "types": [
            "locality",
            "political"
          ]
        }
      ],
      "status": "OK"
    }
  },
  {
    "name": "Tomá Plekanec",
    "birthday": "October 31, 1982",
    "birthplace": "Kladno, Czech Republic",
    "position": "Forward",
    "currentTeam": "Montreal Canadiens",
    "geo": {
      "results": [
        {
          "address_components": [
            {
              "long_name": "Kladno",
              "short_name": "Kladno",
              "types": [
                "locality",
                "political"
              ]
            },
            {
              "long_name": "Kladno District",
              "short_name": "Kladno District",
              "types": [
                "administrative_area_level_2",
                "political"
              ]
            },
            {
              "long_name": "Central Bohemian Region",
              "short_name": "Central Bohemian Region",
              "types": [
                "administrative_area_level_1",
                "political"
              ]
            },
            {
              "long_name": "Czech Republic",
              "short_name": "CZ",
              "types": [
                "country",
                "political"
              ]
            }
          ],
          "formatted_address": "Kladno, Czech Republic",
          "geometry": {
            "bounds": {
              "northeast": {
                "lat": 50.1823661,
                "lng": 14.177871
              },
              "southwest": {
                "lat": 50.1166986,
                "lng": 14.0415518
              }
            },
            "location": {
              "lat": 50.1416986,
              "lng": 14.1067465
            },
            "location_type": "APPROXIMATE",
            "viewport": {
              "northeast": {
                "lat": 50.1823661,
                "lng": 14.177871
              },
              "southwest": {
                "lat": 50.1166986,
                "lng": 14.0415518
              }
            }
          },
          "types": [
            "locality",
            "political"
          ]
        }
      ],
      "status": "OK"
    }
  },
  {
    "name": "Brock Nelson",
    "birthday": "October 15, 1991",
    "birthplace": "Warroad, Minnesota, United States",
    "position": "Forward",
    "currentTeam": "New York Islanders",
    "geo": {
      "results": [
        {
          "address_components": [
            {
              "long_name": "Warroad",
              "short_name": "Warroad",
              "types": [
                "locality",
                "political"
              ]
            },
            {
              "long_name": "Roseau County",
              "short_name": "Roseau County",
              "types": [
                "administrative_area_level_2",
                "political"
              ]
            },
            {
              "long_name": "Minnesota",
              "short_name": "MN",
              "types": [
                "administrative_area_level_1",
                "political"
              ]
            },
            {
              "long_name": "United States",
              "short_name": "US",
              "types": [
                "country",
                "political"
              ]
            },
            {
              "long_name": "56763",
              "short_name": "56763",
              "types": [
                "postal_code"
              ]
            }
          ],
          "formatted_address": "Warroad, MN 56763, USA",
          "geometry": {
            "bounds": {
              "northeast": {
                "lat": 48.951594,
                "lng": -95.297423
              },
              "southwest": {
                "lat": 48.894334,
                "lng": -95.3612869
              }
            },
            "location": {
              "lat": 48.9052657,
              "lng": -95.31440409999999
            },
            "location_type": "APPROXIMATE",
            "viewport": {
              "northeast": {
                "lat": 48.951594,
                "lng": -95.297423
              },
              "southwest": {
                "lat": 48.894334,
                "lng": -95.3612869
              }
            }
          },
          "types": [
            "locality",
            "political"
          ]
        }
      ],
      "status": "OK"
    }
  },
  {
    "name": "Patric Hörnqvist",
    "birthday": "January 1, 1987",
    "birthplace": "Sollentuna, Sweden",
    "position": "Forward",
    "currentTeam": "Pittsburgh Penguins",
    "geo": {
      "results": [
        {
          "address_components": [
            {
              "long_name": "Sollentuna",
              "short_name": "Sollentuna",
              "types": [
                "locality",
                "political"
              ]
            },
            {
              "long_name": "Sollentuna",
              "short_name": "Sollentuna",
              "types": [
                "administrative_area_level_2",
                "political"
              ]
            },
            {
              "long_name": "Stockholm County",
              "short_name": "Stockholm County",
              "types": [
                "administrative_area_level_1",
                "political"
              ]
            },
            {
              "long_name": "Sweden",
              "short_name": "SE",
              "types": [
                "country",
                "political"
              ]
            }
          ],
          "formatted_address": "Sollentuna, Sweden",
          "geometry": {
            "bounds": {
              "northeast": {
                "lat": 59.4984,
                "lng": 18.0163742
              },
              "southwest": {
                "lat": 59.39296489999999,
                "lng": 17.825145
              }
            },
            "location": {
              "lat": 59.43911,
              "lng": 17.94148
            },
            "location_type": "APPROXIMATE",
            "viewport": {
              "northeast": {
                "lat": 59.4984,
                "lng": 18.0163742
              },
              "southwest": {
                "lat": 59.39296489999999,
                "lng": 17.825145
              }
            }
          },
          "types": [
            "locality",
            "political"
          ]
        }
      ],
      "status": "OK"
    }
  },
  {
    "name": "Jamie Benn",
    "birthday": "July 18, 1989",
    "birthplace": "Victoria, British Columbia, Canada",
    "position": "Forward",
    "currentTeam": "Dallas Stars",
    "geo": {
      "results": [
        {
          "address_components": [
            {
              "long_name": "Victoria",
              "short_name": "Victoria",
              "types": [
                "locality",
                "political"
              ]
            },
            {
              "long_name": "Capital",
              "short_name": "Capital",
              "types": [
                "administrative_area_level_2",
                "political"
              ]
            },
            {
              "long_name": "British Columbia",
              "short_name": "BC",
              "types": [
                "administrative_area_level_1",
                "political"
              ]
            },
            {
              "long_name": "Canada",
              "short_name": "CA",
              "types": [
                "country",
                "political"
              ]
            }
          ],
          "formatted_address": "Victoria, BC, Canada",
          "geometry": {
            "bounds": {
              "northeast": {
                "lat": 48.450518,
                "lng": -123.322346
              },
              "southwest": {
                "lat": 48.4028414,
                "lng": -123.394489
              }
            },
            "location": {
              "lat": 48.4284207,
              "lng": -123.3656444
            },
            "location_type": "APPROXIMATE",
            "viewport": {
              "northeast": {
                "lat": 48.450518,
                "lng": -123.322346
              },
              "southwest": {
                "lat": 48.4028414,
                "lng": -123.394489
              }
            }
          },
          "types": [
            "locality",
            "political"
          ]
        }
      ],
      "status": "OK"
    }
  },
  {
    "name": "Tyler Toffoli",
    "birthday": "April 24, 1992",
    "birthplace": "Toronto, Ontario, Canada",
    "position": "Forward",
    "currentTeam": "Los Angeles Kings",
    "geo": {
      "results": [
        {
          "address_components": [
            {
              "long_name": "Toronto",
              "short_name": "Toronto",
              "types": [
                "locality",
                "political"
              ]
            },
            {
              "long_name": "Toronto Division",
              "short_name": "Toronto Division",
              "types": [
                "administrative_area_level_2",
                "political"
              ]
            },
            {
              "long_name": "Ontario",
              "short_name": "ON",
              "types": [
                "administrative_area_level_1",
                "political"
              ]
            },
            {
              "long_name": "Canada",
              "short_name": "CA",
              "types": [
                "country",
                "political"
              ]
            }
          ],
          "formatted_address": "Toronto, ON, Canada",
          "geometry": {
            "bounds": {
              "northeast": {
                "lat": 43.8554579,
                "lng": -79.1161932
              },
              "southwest": {
                "lat": 43.5810846,
                "lng": -79.639219
              }
            },
            "location": {
              "lat": 43.653226,
              "lng": -79.3831843
            },
            "location_type": "APPROXIMATE",
            "viewport": {
              "northeast": {
                "lat": 43.8554579,
                "lng": -79.1161932
              },
              "southwest": {
                "lat": 43.5810846,
                "lng": -79.639219
              }
            }
          },
          "types": [
            "locality",
            "political"
          ]
        }
      ],
      "status": "OK"
    }
  },
  {
    "name": "Joe Thornton",
    "birthday": "July 2, 1979",
    "birthplace": "London, Ontario, Canada",
    "position": "Forward",
    "currentTeam": "San Jose Sharks",
    "geo": {
      "results": [
        {
          "address_components": [
            {
              "long_name": "London",
              "short_name": "London",
              "types": [
                "locality",
                "political"
              ]
            },
            {
              "long_name": "Middlesex County",
              "short_name": "Middlesex County",
              "types": [
                "administrative_area_level_2",
                "political"
              ]
            },
            {
              "long_name": "Ontario",
              "short_name": "ON",
              "types": [
                "administrative_area_level_1",
                "political"
              ]
            },
            {
              "long_name": "Canada",
              "short_name": "CA",
              "types": [
                "country",
                "political"
              ]
            }
          ],
          "formatted_address": "London, ON, Canada",
          "geometry": {
            "bounds": {
              "northeast": {
                "lat": 43.073245,
                "lng": -81.1063879
              },
              "southwest": {
                "lat": 42.824517,
                "lng": -81.390852
              }
            },
            "location": {
              "lat": 42.9869502,
              "lng": -81.243177
            },
            "location_type": "APPROXIMATE",
            "viewport": {
              "northeast": {
                "lat": 43.073245,
                "lng": -81.1063879
              },
              "southwest": {
                "lat": 42.824517,
                "lng": -81.390852
              }
            }
          },
          "types": [
            "locality",
            "political"
          ]
        }
      ],
      "status": "OK"
    }
  },
  {
    "name": "Henrik Sedin",
    "birthday": "September 26, 1980",
    "birthplace": "Örnsköldsvik, Sweden",
    "position": "Forward",
    "currentTeam": "Vancouver Canucks",
    "geo": {
      "results": [
        {
          "address_components": [
            {
              "long_name": "Örnsköldsvik",
              "short_name": "Örnsköldsvik",
              "types": [
                "locality",
                "political"
              ]
            },
            {
              "long_name": "Örnsköldsvik",
              "short_name": "Örnsköldsvik",
              "types": [
                "administrative_area_level_2",
                "political"
              ]
            },
            {
              "long_name": "Västernorrland County",
              "short_name": "Västernorrland County",
              "types": [
                "administrative_area_level_1",
                "political"
              ]
            },
            {
              "long_name": "Sweden",
              "short_name": "SE",
              "types": [
                "country",
                "political"
              ]
            }
          ],
          "formatted_address": "Örnsköldsvik, Sweden",
          "geometry": {
            "bounds": {
              "northeast": {
                "lat": 63.32695699999999,
                "lng": 18.7993949
              },
              "southwest": {
                "lat": 63.239483,
                "lng": 18.5708369
              }
            },
            "location": {
              "lat": 63.29004740000001,
              "lng": 18.7166166
            },
            "location_type": "APPROXIMATE",
            "viewport": {
              "northeast": {
                "lat": 63.32695699999999,
                "lng": 18.7993949
              },
              "southwest": {
                "lat": 63.239483,
                "lng": 18.5708369
              }
            }
          },
          "types": [
            "locality",
            "political"
          ]
        }
      ],
      "status": "OK"
    }
  },
  {
    "name": "Brent Burns",
    "birthday": "March 9, 1985",
    "birthplace": "Ajax, Ontario, Canada",
    "position": "Defenseman",
    "currentTeam": "San Jose Sharks",
    "geo": {
      "results": [
        {
          "address_components": [
            {
              "long_name": "Ajax",
              "short_name": "Ajax",
              "types": [
                "locality",
                "political"
              ]
            },
            {
              "long_name": "Durham Regional Municipality",
              "short_name": "Durham Regional Municipality",
              "types": [
                "administrative_area_level_2",
                "political"
              ]
            },
            {
              "long_name": "Ontario",
              "short_name": "ON",
              "types": [
                "administrative_area_level_1",
                "political"
              ]
            },
            {
              "long_name": "Canada",
              "short_name": "CA",
              "types": [
                "country",
                "political"
              ]
            }
          ],
          "formatted_address": "Ajax, ON, Canada",
          "geometry": {
            "bounds": {
              "northeast": {
                "lat": 43.922496,
                "lng": -78.9706551
              },
              "southwest": {
                "lat": 43.8157965,
                "lng": -79.087333
              }
            },
            "location": {
              "lat": 43.8508553,
              "lng": -79.0203732
            },
            "location_type": "APPROXIMATE",
            "viewport": {
              "northeast": {
                "lat": 43.922496,
                "lng": -78.9706551
              },
              "southwest": {
                "lat": 43.8157965,
                "lng": -79.087333
              }
            }
          },
          "types": [
            "locality",
            "political"
          ]
        }
      ],
      "status": "OK"
    }
  },
  {
    "name": "Daniel Sedin",
    "birthday": "September 26, 1980",
    "birthplace": "Örnsköldsvik, Sweden",
    "position": "Forward",
    "currentTeam": "Vancouver Canucks",
    "geo": {
      "results": [
        {
          "address_components": [
            {
              "long_name": "Örnsköldsvik",
              "short_name": "Örnsköldsvik",
              "types": [
                "locality",
                "political"
              ]
            },
            {
              "long_name": "Örnsköldsvik",
              "short_name": "Örnsköldsvik",
              "types": [
                "administrative_area_level_2",
                "political"
              ]
            },
            {
              "long_name": "Västernorrland County",
              "short_name": "Västernorrland County",
              "types": [
                "administrative_area_level_1",
                "political"
              ]
            },
            {
              "long_name": "Sweden",
              "short_name": "SE",
              "types": [
                "country",
                "political"
              ]
            }
          ],
          "formatted_address": "Örnsköldsvik, Sweden",
          "geometry": {
            "bounds": {
              "northeast": {
                "lat": 63.32695699999999,
                "lng": 18.7993949
              },
              "southwest": {
                "lat": 63.239483,
                "lng": 18.5708369
              }
            },
            "location": {
              "lat": 63.29004740000001,
              "lng": 18.7166166
            },
            "location_type": "APPROXIMATE",
            "viewport": {
              "northeast": {
                "lat": 63.32695699999999,
                "lng": 18.7993949
              },
              "southwest": {
                "lat": 63.239483,
                "lng": 18.5708369
              }
            }
          },
          "types": [
            "locality",
            "political"
          ]
        }
      ],
      "status": "OK"
    }
  },
  {
    "name": "Jason Spezza",
    "birthday": "June 13, 1983",
    "birthplace": "Mississauga, Ontario, Canada",
    "position": "Forward",
    "currentTeam": "Dallas Stars",
    "geo": {
      "results": [
        {
          "address_components": [
            {
              "long_name": "Mississauga",
              "short_name": "Mississauga",
              "types": [
                "locality",
                "political"
              ]
            },
            {
              "long_name": "Peel Regional Municipality",
              "short_name": "Peel Regional Municipality",
              "types": [
                "administrative_area_level_2",
                "political"
              ]
            },
            {
              "long_name": "Ontario",
              "short_name": "ON",
              "types": [
                "administrative_area_level_1",
                "political"
              ]
            },
            {
              "long_name": "Canada",
              "short_name": "CA",
              "types": [
                "country",
                "political"
              ]
            }
          ],
          "formatted_address": "Mississauga, ON, Canada",
          "geometry": {
            "bounds": {
              "northeast": {
                "lat": 43.737351,
                "lng": -79.5408494
              },
              "southwest": {
                "lat": 43.4809933,
                "lng": -79.8101295
              }
            },
            "location": {
              "lat": 43.5890452,
              "lng": -79.6441198
            },
            "location_type": "APPROXIMATE",
            "viewport": {
              "northeast": {
                "lat": 43.737351,
                "lng": -79.5408494
              },
              "southwest": {
                "lat": 43.4809933,
                "lng": -79.8101295
              }
            }
          },
          "types": [
            "locality",
            "political"
          ]
        }
      ],
      "status": "OK"
    }
  },
  {
    "name": "Joe Colborne",
    "birthday": "January 30, 1990",
    "birthplace": "Calgary, Alberta, Canada",
    "position": "Forward",
    "currentTeam": "Calgary Flames",
    "geo": {
      "results": [
        {
          "address_components": [
            {
              "long_name": "Calgary",
              "short_name": "Calgary",
              "types": [
                "locality",
                "political"
              ]
            },
            {
              "long_name": "Division No. 6",
              "short_name": "Division No. 6",
              "types": [
                "administrative_area_level_2",
                "political"
              ]
            },
            {
              "long_name": "Alberta",
              "short_name": "AB",
              "types": [
                "administrative_area_level_1",
                "political"
              ]
            },
            {
              "long_name": "Canada",
              "short_name": "CA",
              "types": [
                "country",
                "political"
              ]
            }
          ],
          "formatted_address": "Calgary, AB, Canada",
          "geometry": {
            "bounds": {
              "northeast": {
                "lat": 51.18383,
                "lng": -113.8769511
              },
              "southwest": {
                "lat": 50.84240399999999,
                "lng": -114.27136
              }
            },
            "location": {
              "lat": 51.0453246,
              "lng": -114.0581012
            },
            "location_type": "APPROXIMATE",
            "viewport": {
              "northeast": {
                "lat": 51.18383,
                "lng": -113.8769511
              },
              "southwest": {
                "lat": 50.84240399999999,
                "lng": -114.27136
              }
            }
          },
          "types": [
            "locality",
            "political"
          ]
        }
      ],
      "status": "OK"
    }
  },
  {
    "name": "Scott Hartnell",
    "birthday": "April 18, 1982",
    "birthplace": "Regina, Saskatchewan, Canada",
    "position": "Forward",
    "currentTeam": "Columbus Blue Jackets",
    "geo": {
      "results": [
        {
          "address_components": [
            {
              "long_name": "Regina",
              "short_name": "Regina",
              "types": [
                "locality",
                "political"
              ]
            },
            {
              "long_name": "Division No. 6",
              "short_name": "Division No. 6",
              "types": [
                "administrative_area_level_2",
                "political"
              ]
            },
            {
              "long_name": "Saskatchewan",
              "short_name": "SK",
              "types": [
                "administrative_area_level_1",
                "political"
              ]
            },
            {
              "long_name": "Canada",
              "short_name": "CA",
              "types": [
                "country",
                "political"
              ]
            }
          ],
          "formatted_address": "Regina, SK, Canada",
          "geometry": {
            "bounds": {
              "northeast": {
                "lat": 50.5063089,
                "lng": -104.5233991
              },
              "southwest": {
                "lat": 50.3964489,
                "lng": -104.709816
              }
            },
            "location": {
              "lat": 50.454722,
              "lng": -104.606667
            },
            "location_type": "APPROXIMATE",
            "viewport": {
              "northeast": {
                "lat": 50.5063089,
                "lng": -104.5233991
              },
              "southwest": {
                "lat": 50.3964489,
                "lng": -104.709816
              }
            }
          },
          "types": [
            "locality",
            "political"
          ]
        }
      ],
      "status": "OK"
    }
  },
  {
    "name": "Mason Raymond",
    "birthday": "September 17, 1985",
    "birthplace": "Calgary, Alberta, Canada",
    "position": "Forward",
    "currentTeam": "Calgary Flames",
    "geo": {
      "results": [
        {
          "address_components": [
            {
              "long_name": "Calgary",
              "short_name": "Calgary",
              "types": [
                "locality",
                "political"
              ]
            },
            {
              "long_name": "Division No. 6",
              "short_name": "Division No. 6",
              "types": [
                "administrative_area_level_2",
                "political"
              ]
            },
            {
              "long_name": "Alberta",
              "short_name": "AB",
              "types": [
                "administrative_area_level_1",
                "political"
              ]
            },
            {
              "long_name": "Canada",
              "short_name": "CA",
              "types": [
                "country",
                "political"
              ]
            }
          ],
          "formatted_address": "Calgary, AB, Canada",
          "geometry": {
            "bounds": {
              "northeast": {
                "lat": 51.18383,
                "lng": -113.8769511
              },
              "southwest": {
                "lat": 50.84240399999999,
                "lng": -114.27136
              }
            },
            "location": {
              "lat": 51.0453246,
              "lng": -114.0581012
            },
            "location_type": "APPROXIMATE",
            "viewport": {
              "northeast": {
                "lat": 51.18383,
                "lng": -113.8769511
              },
              "southwest": {
                "lat": 50.84240399999999,
                "lng": -114.27136
              }
            }
          },
          "types": [
            "locality",
            "political"
          ]
        }
      ],
      "status": "OK"
    }
  },
  {
    "name": "Steven Stamkos",
    "birthday": "February 7, 1990",
    "birthplace": "Markham, Ontario, Canada",
    "position": "Forward",
    "currentTeam": "Tampa Bay Lightning",
    "geo": {
      "results": [
        {
          "address_components": [
            {
              "long_name": "Markham",
              "short_name": "Markham",
              "types": [
                "locality",
                "political"
              ]
            },
            {
              "long_name": "York Regional Municipality",
              "short_name": "York Regional Municipality",
              "types": [
                "administrative_area_level_2",
                "political"
              ]
            },
            {
              "long_name": "Ontario",
              "short_name": "ON",
              "types": [
                "administrative_area_level_1",
                "political"
              ]
            },
            {
              "long_name": "Canada",
              "short_name": "CA",
              "types": [
                "country",
                "political"
              ]
            }
          ],
          "formatted_address": "Markham, ON, Canada",
          "geometry": {
            "bounds": {
              "northeast": {
                "lat": 43.9634291,
                "lng": -79.170254
              },
              "southwest": {
                "lat": 43.7980491,
                "lng": -79.428823
              }
            },
            "location": {
              "lat": 43.8561002,
              "lng": -79.3370188
            },
            "location_type": "APPROXIMATE",
            "viewport": {
              "northeast": {
                "lat": 43.9634291,
                "lng": -79.170254
              },
              "southwest": {
                "lat": 43.7980491,
                "lng": -79.428823
              }
            }
          },
          "types": [
            "locality",
            "political"
          ]
        }
      ],
      "status": "OK"
    }
  },
  {
    "name": "Wayne Simmonds",
    "birthday": "August 26, 1988",
    "birthplace": "Scarborough, Ontario, Canada",
    "position": "Forward",
    "currentTeam": "Philadelphia Flyers",
    "geo": {
      "results": [
        {
          "address_components": [
            {
              "long_name": "Scarborough",
              "short_name": "Scarborough",
              "types": [
                "sublocality_level_1",
                "sublocality",
                "political"
              ]
            },
            {
              "long_name": "Toronto",
              "short_name": "Toronto",
              "types": [
                "locality",
                "political"
              ]
            },
            {
              "long_name": "Toronto Division",
              "short_name": "Toronto Division",
              "types": [
                "administrative_area_level_2",
                "political"
              ]
            },
            {
              "long_name": "Ontario",
              "short_name": "ON",
              "types": [
                "administrative_area_level_1",
                "political"
              ]
            },
            {
              "long_name": "Canada",
              "short_name": "CA",
              "types": [
                "country",
                "political"
              ]
            }
          ],
          "formatted_address": "Scarborough, Toronto, ON, Canada",
          "geometry": {
            "bounds": {
              "northeast": {
                "lat": 43.8554447,
                "lng": -79.1161286
              },
              "southwest": {
                "lat": 43.671154,
                "lng": -79.341341
              }
            },
            "location": {
              "lat": 43.7764258,
              "lng": -79.2317521
            },
            "location_type": "APPROXIMATE",
            "viewport": {
              "northeast": {
                "lat": 43.8554447,
                "lng": -79.1161286
              },
              "southwest": {
                "lat": 43.671154,
                "lng": -79.341341
              }
            }
          },
          "types": [
            "sublocality_level_1",
            "sublocality",
            "political"
          ]
        }
      ],
      "status": "OK"
    }
  },
  {
    "name": "Tanner Pearson",
    "birthday": "August 10, 1992",
    "birthplace": "Kitchener, Ontario, Canada",
    "position": "Forward",
    "currentTeam": "Los Angeles Kings",
    "geo": {
      "results": [
        {
          "address_components": [
            {
              "long_name": "Kitchener",
              "short_name": "Kitchener",
              "types": [
                "locality",
                "political"
              ]
            },
            {
              "long_name": "Waterloo Regional Municipality",
              "short_name": "Waterloo Regional Municipality",
              "types": [
                "administrative_area_level_2",
                "political"
              ]
            },
            {
              "long_name": "Ontario",
              "short_name": "ON",
              "types": [
                "administrative_area_level_1",
                "political"
              ]
            },
            {
              "long_name": "Canada",
              "short_name": "CA",
              "types": [
                "country",
                "political"
              ]
            }
          ],
          "formatted_address": "Kitchener, ON, Canada",
          "geometry": {
            "bounds": {
              "northeast": {
                "lat": 43.5070088,
                "lng": -80.37852509999999
              },
              "southwest": {
                "lat": 43.3538599,
                "lng": -80.5741051
              }
            },
            "location": {
              "lat": 43.45,
              "lng": -80.483333
            },
            "location_type": "APPROXIMATE",
            "viewport": {
              "northeast": {
                "lat": 43.5070088,
                "lng": -80.37852509999999
              },
              "southwest": {
                "lat": 43.3538599,
                "lng": -80.5741051
              }
            }
          },
          "types": [
            "locality",
            "political"
          ]
        }
      ],
      "status": "OK"
    }
  },
  {
    "name": "Mike Cammalleri",
    "birthday": "June 8, 1982",
    "birthplace": "Richmond Hill, Ontario, Canada",
    "position": "Forward",
    "currentTeam": "New Jersey Devils",
    "geo": {
      "results": [
        {
          "address_components": [
            {
              "long_name": "Richmond Hill",
              "short_name": "Richmond Hill",
              "types": [
                "locality",
                "political"
              ]
            },
            {
              "long_name": "York Regional Municipality",
              "short_name": "York Regional Municipality",
              "types": [
                "administrative_area_level_2",
                "political"
              ]
            },
            {
              "long_name": "Ontario",
              "short_name": "ON",
              "types": [
                "administrative_area_level_1",
                "political"
              ]
            },
            {
              "long_name": "Canada",
              "short_name": "CA",
              "types": [
                "country",
                "political"
              ]
            }
          ],
          "formatted_address": "Richmond Hill, ON, Canada",
          "geometry": {
            "bounds": {
              "northeast": {
                "lat": 43.9777849,
                "lng": -79.37100989999999
              },
              "southwest": {
                "lat": 43.829353,
                "lng": -79.485593
              }
            },
            "location": {
              "lat": 43.8828401,
              "lng": -79.4402808
            },
            "location_type": "APPROXIMATE",
            "viewport": {
              "northeast": {
                "lat": 43.9777849,
                "lng": -79.37100989999999
              },
              "southwest": {
                "lat": 43.829353,
                "lng": -79.485593
              }
            }
          },
          "types": [
            "locality",
            "political"
          ]
        }
      ],
      "status": "OK"
    }
  },
  {
    "name": "Radim Vrbata",
    "birthday": "June 13, 1981",
    "birthplace": "Mlada Boleslav, Czech Republic",
    "position": "Forward",
    "currentTeam": "Vancouver Canucks",
    "geo": {
      "results": [
        {
          "address_components": [
            {
              "long_name": "Mlada Boleslav",
              "short_name": "Mlada Boleslav",
              "types": [
                "locality",
                "political"
              ]
            },
            {
              "long_name": "Mladá Boleslav District",
              "short_name": "Mladá Boleslav District",
              "types": [
                "administrative_area_level_2",
                "political"
              ]
            },
            {
              "long_name": "Central Bohemian Region",
              "short_name": "Central Bohemian Region",
              "types": [
                "administrative_area_level_1",
                "political"
              ]
            },
            {
              "long_name": "Czech Republic",
              "short_name": "CZ",
              "types": [
                "country",
                "political"
              ]
            }
          ],
          "formatted_address": "Mlada Boleslav, Czech Republic",
          "geometry": {
            "bounds": {
              "northeast": {
                "lat": 50.4581604,
                "lng": 14.9609403
              },
              "southwest": {
                "lat": 50.3801004,
                "lng": 14.848279
              }
            },
            "location": {
              "lat": 50.4134249,
              "lng": 14.908438
            },
            "location_type": "APPROXIMATE",
            "viewport": {
              "northeast": {
                "lat": 50.4581604,
                "lng": 14.9609403
              },
              "southwest": {
                "lat": 50.3801004,
                "lng": 14.848279
              }
            }
          },
          "types": [
            "locality",
            "political"
          ]
        }
      ],
      "status": "OK"
    }
  },
  {
    "name": "Jaden Schwartz",
    "birthday": "June 25, 1992",
    "birthplace": "Melfort, Saskatchewan, Canada",
    "position": "Forward",
    "currentTeam": "St. Louis Blues",
    "geo": {
      "results": [
        {
          "address_components": [
            {
              "long_name": "Melfort",
              "short_name": "Melfort",
              "types": [
                "locality",
                "political"
              ]
            },
            {
              "long_name": "Division No. 14",
              "short_name": "Division No. 14",
              "types": [
                "administrative_area_level_2",
                "political"
              ]
            },
            {
              "long_name": "Saskatchewan",
              "short_name": "SK",
              "types": [
                "administrative_area_level_1",
                "political"
              ]
            },
            {
              "long_name": "Canada",
              "short_name": "CA",
              "types": [
                "country",
                "political"
              ]
            },
            {
              "long_name": "S0E",
              "short_name": "S0E",
              "types": [
                "postal_code_prefix",
                "postal_code"
              ]
            }
          ],
          "formatted_address": "Melfort, SK S0E, Canada",
          "geometry": {
            "bounds": {
              "northeast": {
                "lat": 52.877863,
                "lng": -104.567581
              },
              "southwest": {
                "lat": 52.83411899999999,
                "lng": -104.640286
              }
            },
            "location": {
              "lat": 52.8608387,
              "lng": -104.6142973
            },
            "location_type": "APPROXIMATE",
            "viewport": {
              "northeast": {
                "lat": 52.877863,
                "lng": -104.567581
              },
              "southwest": {
                "lat": 52.83411899999999,
                "lng": -104.640286
              }
            }
          },
          "types": [
            "locality",
            "political"
          ]
        }
      ],
      "status": "OK"
    }
  },
  {
    "name": "T.J. Brodie",
    "birthday": "June 7, 1990",
    "birthplace": "Chatham, Ontario, Canada",
    "position": "Defenseman",
    "currentTeam": "Calgary Flames",
    "geo": {
      "results": [
        {
          "address_components": [
            {
              "long_name": "Chatham",
              "short_name": "Chatham",
              "types": [
                "sublocality_level_1",
                "sublocality",
                "political"
              ]
            },
            {
              "long_name": "Chatham-Kent",
              "short_name": "Chatham-Kent",
              "types": [
                "locality",
                "political"
              ]
            },
            {
              "long_name": "Chatham-Kent Division",
              "short_name": "Chatham-Kent Division",
              "types": [
                "administrative_area_level_2",
                "political"
              ]
            },
            {
              "long_name": "Ontario",
              "short_name": "ON",
              "types": [
                "administrative_area_level_1",
                "political"
              ]
            },
            {
              "long_name": "Canada",
              "short_name": "CA",
              "types": [
                "country",
                "political"
              ]
            }
          ],
          "formatted_address": "Chatham, Chatham-Kent, ON, Canada",
          "geometry": {
            "bounds": {
              "northeast": {
                "lat": 42.436101,
                "lng": -82.1496639
              },
              "southwest": {
                "lat": 42.3687599,
                "lng": -82.2473122
              }
            },
            "location": {
              "lat": 42.4048018,
              "lng": -82.1910376
            },
            "location_type": "APPROXIMATE",
            "viewport": {
              "northeast": {
                "lat": 42.436101,
                "lng": -82.1496639
              },
              "southwest": {
                "lat": 42.3687599,
                "lng": -82.2473122
              }
            }
          },
          "types": [
            "sublocality_level_1",
            "sublocality",
            "political"
          ]
        }
      ],
      "status": "OK"
    }
  },
  {
    "name": "Tyler Bozak",
    "birthday": "March 19, 1986",
    "birthplace": "Regina, Saskatchewan, Canada",
    "position": "Forward",
    "currentTeam": "Toronto Maple Leafs",
    "geo": {
      "results": [
        {
          "address_components": [
            {
              "long_name": "Regina",
              "short_name": "Regina",
              "types": [
                "locality",
                "political"
              ]
            },
            {
              "long_name": "Division No. 6",
              "short_name": "Division No. 6",
              "types": [
                "administrative_area_level_2",
                "political"
              ]
            },
            {
              "long_name": "Saskatchewan",
              "short_name": "SK",
              "types": [
                "administrative_area_level_1",
                "political"
              ]
            },
            {
              "long_name": "Canada",
              "short_name": "CA",
              "types": [
                "country",
                "political"
              ]
            }
          ],
          "formatted_address": "Regina, SK, Canada",
          "geometry": {
            "bounds": {
              "northeast": {
                "lat": 50.5063089,
                "lng": -104.5233991
              },
              "southwest": {
                "lat": 50.3964489,
                "lng": -104.709816
              }
            },
            "location": {
              "lat": 50.454722,
              "lng": -104.606667
            },
            "location_type": "APPROXIMATE",
            "viewport": {
              "northeast": {
                "lat": 50.5063089,
                "lng": -104.5233991
              },
              "southwest": {
                "lat": 50.3964489,
                "lng": -104.709816
              }
            }
          },
          "types": [
            "locality",
            "political"
          ]
        }
      ],
      "status": "OK"
    }
  },
  {
    "name": "Alex Galchenyuk",
    "birthday": "February 12, 1994",
    "birthplace": "Milwaukee, Wisconsin, United States",
    "position": "Forward",
    "currentTeam": "Montreal Canadiens",
    "geo": {
      "results": [
        {
          "address_components": [
            {
              "long_name": "Milwaukee",
              "short_name": "Milwaukee",
              "types": [
                "locality",
                "political"
              ]
            },
            {
              "long_name": "Milwaukee County",
              "short_name": "Milwaukee County",
              "types": [
                "administrative_area_level_2",
                "political"
              ]
            },
            {
              "long_name": "Wisconsin",
              "short_name": "WI",
              "types": [
                "administrative_area_level_1",
                "political"
              ]
            },
            {
              "long_name": "United States",
              "short_name": "US",
              "types": [
                "country",
                "political"
              ]
            }
          ],
          "formatted_address": "Milwaukee, WI, USA",
          "geometry": {
            "bounds": {
              "northeast": {
                "lat": 43.1949671,
                "lng": -87.8639841
              },
              "southwest": {
                "lat": 42.9208158,
                "lng": -88.070876
              }
            },
            "location": {
              "lat": 43.0389025,
              "lng": -87.9064736
            },
            "location_type": "APPROXIMATE",
            "viewport": {
              "northeast": {
                "lat": 43.1949671,
                "lng": -87.8639841
              },
              "southwest": {
                "lat": 42.9208158,
                "lng": -88.070876
              }
            }
          },
          "types": [
            "locality",
            "political"
          ]
        }
      ],
      "status": "OK"
    }
  },
  {
    "name": "Adam Henrique",
    "birthday": "February 6, 1990",
    "birthplace": "Brantford, Ontario, Canada",
    "position": "Forward",
    "currentTeam": "New Jersey Devils",
    "geo": {
      "results": [
        {
          "address_components": [
            {
              "long_name": "Brantford",
              "short_name": "Brantford",
              "types": [
                "locality",
                "political"
              ]
            },
            {
              "long_name": "Brant County",
              "short_name": "Brant County",
              "types": [
                "administrative_area_level_2",
                "political"
              ]
            },
            {
              "long_name": "Ontario",
              "short_name": "ON",
              "types": [
                "administrative_area_level_1",
                "political"
              ]
            },
            {
              "long_name": "Canada",
              "short_name": "CA",
              "types": [
                "country",
                "political"
              ]
            }
          ],
          "formatted_address": "Brantford, ON, Canada",
          "geometry": {
            "bounds": {
              "northeast": {
                "lat": 43.1935791,
                "lng": -80.1942049
              },
              "southwest": {
                "lat": 43.101638,
                "lng": -80.3539261
              }
            },
            "location": {
              "lat": 43.1393867,
              "lng": -80.2644254
            },
            "location_type": "APPROXIMATE",
            "viewport": {
              "northeast": {
                "lat": 43.1935791,
                "lng": -80.1942049
              },
              "southwest": {
                "lat": 43.101638,
                "lng": -80.3539261
              }
            }
          },
          "types": [
            "locality",
            "political"
          ]
        }
      ],
      "status": "OK"
    }
  },
  {
    "name": "Victor Hedman",
    "birthday": "December 18, 1990",
    "birthplace": "Örnsköldsvik, Sweden",
    "position": "Defenseman",
    "currentTeam": "Tampa Bay Lightning",
    "geo": {
      "results": [
        {
          "address_components": [
            {
              "long_name": "Örnsköldsvik",
              "short_name": "Örnsköldsvik",
              "types": [
                "locality",
                "political"
              ]
            },
            {
              "long_name": "Örnsköldsvik",
              "short_name": "Örnsköldsvik",
              "types": [
                "administrative_area_level_2",
                "political"
              ]
            },
            {
              "long_name": "Västernorrland County",
              "short_name": "Västernorrland County",
              "types": [
                "administrative_area_level_1",
                "political"
              ]
            },
            {
              "long_name": "Sweden",
              "short_name": "SE",
              "types": [
                "country",
                "political"
              ]
            }
          ],
          "formatted_address": "Örnsköldsvik, Sweden",
          "geometry": {
            "bounds": {
              "northeast": {
                "lat": 63.32695699999999,
                "lng": 18.7993949
              },
              "southwest": {
                "lat": 63.239483,
                "lng": 18.5708369
              }
            },
            "location": {
              "lat": 63.29004740000001,
              "lng": 18.7166166
            },
            "location_type": "APPROXIMATE",
            "viewport": {
              "northeast": {
                "lat": 63.32695699999999,
                "lng": 18.7993949
              },
              "southwest": {
                "lat": 63.239483,
                "lng": 18.5708369
              }
            }
          },
          "types": [
            "locality",
            "political"
          ]
        }
      ],
      "status": "OK"
    }
  },
  {
    "name": "Chris Kelly",
    "birthday": "November 11, 1980",
    "birthplace": "Toronto, Ontario, Canada",
    "position": "Forward",
    "currentTeam": "Boston Bruins",
    "geo": {
      "results": [
        {
          "address_components": [
            {
              "long_name": "Toronto",
              "short_name": "Toronto",
              "types": [
                "locality",
                "political"
              ]
            },
            {
              "long_name": "Toronto Division",
              "short_name": "Toronto Division",
              "types": [
                "administrative_area_level_2",
                "political"
              ]
            },
            {
              "long_name": "Ontario",
              "short_name": "ON",
              "types": [
                "administrative_area_level_1",
                "political"
              ]
            },
            {
              "long_name": "Canada",
              "short_name": "CA",
              "types": [
                "country",
                "political"
              ]
            }
          ],
          "formatted_address": "Toronto, ON, Canada",
          "geometry": {
            "bounds": {
              "northeast": {
                "lat": 43.8554579,
                "lng": -79.1161932
              },
              "southwest": {
                "lat": 43.5810846,
                "lng": -79.639219
              }
            },
            "location": {
              "lat": 43.653226,
              "lng": -79.3831843
            },
            "location_type": "APPROXIMATE",
            "viewport": {
              "northeast": {
                "lat": 43.8554579,
                "lng": -79.1161932
              },
              "southwest": {
                "lat": 43.5810846,
                "lng": -79.639219
              }
            }
          },
          "types": [
            "locality",
            "political"
          ]
        }
      ],
      "status": "OK"
    }
  },
  {
    "name": "Mark Streit",
    "birthday": "December 11, 1977",
    "birthplace": "Englisberg, Switzerland",
    "position": "Defenseman",
    "currentTeam": "Philadelphia Flyers",
    "geo": {
      "results": [
        {
          "address_components": [
            {
              "long_name": "Englisberg",
              "short_name": "Englisberg",
              "types": [
                "locality",
                "political"
              ]
            },
            {
              "long_name": "Seftigen",
              "short_name": "Seftigen",
              "types": [
                "administrative_area_level_2",
                "political"
              ]
            },
            {
              "long_name": "Canton of Bern",
              "short_name": "BE",
              "types": [
                "administrative_area_level_1",
                "political"
              ]
            },
            {
              "long_name": "Switzerland",
              "short_name": "CH",
              "types": [
                "country",
                "political"
              ]
            },
            {
              "long_name": "3086",
              "short_name": "3086",
              "types": [
                "postal_code"
              ]
            }
          ],
          "formatted_address": "3086 Englisberg, Switzerland",
          "geometry": {
            "location": {
              "lat": 46.898056,
              "lng": 7.47
            },
            "location_type": "APPROXIMATE",
            "viewport": {
              "northeast": {
                "lat": 46.9056797,
                "lng": 7.486007400000001
              },
              "southwest": {
                "lat": 46.89043119999999,
                "lng": 7.4539926
              }
            }
          },
          "types": [
            "locality",
            "political"
          ]
        }
      ],
      "status": "OK"
    }
  },
  {
    "name": "David Krejcí",
    "birthday": "April 28, 1986",
    "birthplace": "Sternberk, Czech Republic",
    "position": "Forward",
    "currentTeam": "Boston Bruins",
    "geo": {
      "results": [
        {
          "address_components": [
            {
              "long_name": "Šternberk",
              "short_name": "Šternberk",
              "types": [
                "locality",
                "political"
              ]
            },
            {
              "long_name": "Olomouc District",
              "short_name": "Olomouc District",
              "types": [
                "administrative_area_level_2",
                "political"
              ]
            },
            {
              "long_name": "Olomouc Region",
              "short_name": "Olomouc Region",
              "types": [
                "administrative_area_level_1",
                "political"
              ]
            },
            {
              "long_name": "Czech Republic",
              "short_name": "CZ",
              "types": [
                "country",
                "political"
              ]
            }
          ],
          "formatted_address": "Šternberk, Czech Republic",
          "geometry": {
            "bounds": {
              "northeast": {
                "lat": 49.812848,
                "lng": 17.3811905
              },
              "southwest": {
                "lat": 49.69645389999999,
                "lng": 17.2509842
              }
            },
            "location": {
              "lat": 49.7304416,
              "lng": 17.2988947
            },
            "location_type": "APPROXIMATE",
            "viewport": {
              "northeast": {
                "lat": 49.812848,
                "lng": 17.3811905
              },
              "southwest": {
                "lat": 49.69645389999999,
                "lng": 17.2509842
              }
            }
          },
          "types": [
            "locality",
            "political"
          ]
        }
      ],
      "status": "OK"
    }
  },
  {
    "name": "Mark Giordano",
    "birthday": "October 3, 1983",
    "birthplace": "Toronto, Ontario, Canada",
    "position": "Defenseman",
    "currentTeam": "Calgary Flames",
    "geo": {
      "results": [
        {
          "address_components": [
            {
              "long_name": "Toronto",
              "short_name": "Toronto",
              "types": [
                "locality",
                "political"
              ]
            },
            {
              "long_name": "Toronto Division",
              "short_name": "Toronto Division",
              "types": [
                "administrative_area_level_2",
                "political"
              ]
            },
            {
              "long_name": "Ontario",
              "short_name": "ON",
              "types": [
                "administrative_area_level_1",
                "political"
              ]
            },
            {
              "long_name": "Canada",
              "short_name": "CA",
              "types": [
                "country",
                "political"
              ]
            }
          ],
          "formatted_address": "Toronto, ON, Canada",
          "geometry": {
            "bounds": {
              "northeast": {
                "lat": 43.8554579,
                "lng": -79.1161932
              },
              "southwest": {
                "lat": 43.5810846,
                "lng": -79.639219
              }
            },
            "location": {
              "lat": 43.653226,
              "lng": -79.3831843
            },
            "location_type": "APPROXIMATE",
            "viewport": {
              "northeast": {
                "lat": 43.8554579,
                "lng": -79.1161932
              },
              "southwest": {
                "lat": 43.5810846,
                "lng": -79.639219
              }
            }
          },
          "types": [
            "locality",
            "political"
          ]
        }
      ],
      "status": "OK"
    }
  },
  {
    "name": "Filip Forsberg",
    "birthday": "August 13, 1994",
    "birthplace": "Östervĺla, Sweden",
    "position": "Forward",
    "currentTeam": "Nashville Predators",
    "geo": {
      "results": [],
      "status": "ZERO_RESULTS"
    }
  },
  {
    "name": "Alexander Ovechkin",
    "birthday": "September 17, 1985",
    "birthplace": "Moscow, Russia",
    "position": "Forward",
    "currentTeam": "Washington Capitals",
    "geo": {
      "results": [
        {
          "address_components": [
            {
              "long_name": "Moscow",
              "short_name": "Moscow",
              "types": [
                "locality",
                "political"
              ]
            },
            {
              "long_name": "gorod Moskva",
              "short_name": "g. Moskva",
              "types": [
                "administrative_area_level_2",
                "political"
              ]
            },
            {
              "long_name": "Moscow",
              "short_name": "Moscow",
              "types": [
                "administrative_area_level_1",
                "political"
              ]
            },
            {
              "long_name": "Russia",
              "short_name": "RU",
              "types": [
                "country",
                "political"
              ]
            }
          ],
          "formatted_address": "Moscow, Russia",
          "geometry": {
            "bounds": {
              "northeast": {
                "lat": 56.009657,
                "lng": 37.9456611
              },
              "southwest": {
                "lat": 55.48992699999999,
                "lng": 37.3193288
              }
            },
            "location": {
              "lat": 55.755826,
              "lng": 37.6173
            },
            "location_type": "APPROXIMATE",
            "viewport": {
              "northeast": {
                "lat": 56.009657,
                "lng": 37.9456611
              },
              "southwest": {
                "lat": 55.48992699999999,
                "lng": 37.3193288
              }
            }
          },
          "types": [
            "locality",
            "political"
          ]
        },
        {
          "address_components": [
            {
              "long_name": "Moscow",
              "short_name": "Moscow",
              "types": [
                "locality",
                "political"
              ]
            },
            {
              "long_name": "Penovsky District",
              "short_name": "Penovsky District",
              "types": [
                "administrative_area_level_2",
                "political"
              ]
            },
            {
              "long_name": "Tver Oblast",
              "short_name": "Tver Oblast",
              "types": [
                "administrative_area_level_1",
                "political"
              ]
            },
            {
              "long_name": "Russia",
              "short_name": "RU",
              "types": [
                "country",
                "political"
              ]
            },